[{
        "parkName": "Anasazi State Park Museum",
        "county": "Garfield",
        "size": "6 acres",
        "elevation": "6,700 ft",
        "yearEstablished": 1970,
        "yearlyVisitors": "20,824",
        "remarks": "Interprets a large Ancestral Puebloan village occupied from AD 1160 to 1235.",
        "favorite": true,
        "latitude": 37.9108,
        "longitude": 111.4236
    },
    {
        "parkName": "Antelope Island State Park",
        "county": "Davis",
        "size": "22,022 acres",
        "elevation": "5,308 ft",
        "yearEstablished": 1969,
        "yearlyVisitors": "398,147",
        "remarks": "Protects Antelope Island, the largest island in the Great Salt Lake and habitat for bison, Pronghorn, and bighorn sheep.",
        "latitude": 40.9581,
        "longitude": 112.2146
    },
    {
        "parkName": "Bear Lake State Park",
        "county": "Rich",
        "size": "",
        "elevation": "5,900 ft",
        "yearEstablished": 1962,
        "yearlyVisitors": "249,781",
        "remarks": "Comprises three units on Bear Lake.",
        "latitude": 42.0299,
        "longitude": 111.3322
    },
    {
        "parkName": "Camp Floyd / Stagecoach Inn State Park and Museum",
        "county": "Utah",
        "size": "40 acres",
        "elevation": "4,877 ft",
        "yearEstablished": 1958,
        "yearlyVisitors": "13,623",
        "remarks": "Interprets sites from the time of a massive 1858-1861 U.S. Army camp prompted by fear of the Utah War.",
        "latitude": 40.2609,
        "longitude": 112.0933
    },
    {
        "parkName": "Coral Pink Sand Dunes State Park",
        "county": "Kane",
        "size": "3,730 acres",
        "elevation": "6,000 ft",
        "yearEstablished": 1963,
        "yearlyVisitors": "82,427",
        "remarks": "Preserves the only dune field on the Colorado Plateau, with a unique color caused by iron oxides and minerals in the Navajo sandstone.",
        "latitude": 37.0377,
        "longitude": 112.7144
    },
    {
        "parkName": "Dead Horse Point State Park",
        "county": "Grand and San Juan",
        "size": "5,300 acres",
        "elevation": "5,900 ft",
        "yearEstablished": 1959,
        "yearlyVisitors": "403,737",
        "remarks": "Showcases views of the Colorado River and Canyonlands National Park from a finger of land once used as a horse corral.",
        "latitude": 38.4748,
        "longitude": 109.7406
    },
    {
        "parkName": "Deer Creek State Park",
        "county": "Wasatch",
        "size": "3,260 acres",
        "elevation": "5,400 ft",
        "yearEstablished": 1971,
        "yearlyVisitors": "283,744",
        "remarks": "Adjoins the extremely popular 2,965-acre  Deer Creek Reservoir.",
        "latitude": 40.4101,
        "longitude": 111.5030
    },
    {
        "parkName": "East Canyon State Park",
        "county": "Morgan",
        "size": "267 acres",
        "elevation": "5,700 ft",
        "yearEstablished": 1962,
        "yearlyVisitors": "85,163",
        "remarks": "Features a reservoir in a canyon first traversed by the Donner Party and soon thereafter by Mormon pioneers.",
        "latitude": 40.9011,
        "longitude": 111.5871
    },
    {
        "parkName": "Echo State Park",
        "county": "Summit",
        "size": "",
        "elevation": "",
        "yearEstablished": 2018,
        "yearlyVisitors": "??",
        "remarks": "Echo Reservoir recreation.",
        "latitude": 40.9583,
        "longitude": 111.4080
    },
    {
        "parkName": "Edge of the Cedars State Park Museum",
        "county": "San Juan",
        "size": "16 acres",
        "elevation": "6,200 ft",
        "yearEstablished": 1978,
        "yearlyVisitors": "9,626",
        "remarks": "Interprets an Ancestral Puebloan village occupied from AD 825 to 1125.",
        "latitude": 37.6315,
        "longitude": 109.4899
    },
    {
        "parkName": "Escalante Petrified Forest State Park",
        "county": "Garfield",
        "size": "1,350 acres",
        "elevation": "5,900 ft",
        "yearEstablished": 1976,
        "yearlyVisitors": "52,110",
        "remarks": "Features petrified wood and other fossils plus a recreational reservoir.",
        "latitude": 37.7865,
        "longitude": 111.6307
    },
    {
        "parkName": "Flight Park State Recreation Area",
        "county": "Salt Lake and Utah",
        "size": "147 acres",
        "elevation": "5,146 ft",
        "yearEstablished": 2006,
        "yearlyVisitors": "No Data",
        "remarks": "Offers one of the world's best training sites for hang gliding and parasailing, plus a modelport for radio control aircraft.",
        "latitude": 40.4578,
        "longitude": 111.9014
    },
    {
        "parkName": "Fremont Indian State Park and Museum",
        "county": "Sevier",
        "size": "889 acres",
        "elevation": "5,900 ft",
        "yearEstablished": 1987,
        "yearlyVisitors": "17,550",
        "remarks": "Preserves rock art and artifacts from the largest Fremont culture village yet discovered.",
        "latitude": 38.5774,
        "longitude": 112.3344
    },
    {
        "parkName": "Frontier Homestead State Park Museum",
        "county": "Iron",
        "size": "11 acres",
        "elevation": "5,800 ft",
        "yearEstablished": 1973,
        "yearlyVisitors": "9,265",
        "remarks": "Preserves historic structures and equipment from the 1850s to the 1920s, including Old Iron Town and an extensive collection of horse-drawn vehicles. Formerly called Iron Mission State Park.",
        "latitude": 37.6886,
        "longitude": 113.0625
    },
    {
        "parkName": "Goblin Valley State Park",
        "county": "Emery",
        "size": "3,654 acres",
        "elevation": "5,000 ft",
        "yearEstablished": 1974,
        "yearlyVisitors": "191,414",
        "remarks": "Showcases an unearthly landscape of hoodoos and other rock formations.",
        "latitude": 38.5737,
        "longitude": 110.7071
    },
    {
        "parkName": "Goosenecks State Park",
        "county": "San Juan",
        "size": "10 acres",
        "elevation": "4,500 ft",
        "yearEstablished": 1962,
        "yearlyVisitors": "51,985",
        "remarks": "Overlooks some dramatic meanders of the San Juan River.",
        "latitude": 37.1742,
        "longitude": 109.9271
    },
    {
        "parkName": "Great Salt Lake State Park",
        "county": "Salt Lake",
        "size": "162 acres",
        "elevation": "4,200 ft",
        "yearEstablished": 1978,
        "yearlyVisitors": "396,911",
        "remarks": "Maintains a public boat launch and 320-slip marina on the Great Salt Lake.",
        "latitude": 40.7337,
        "longitude": 112.2108
    },
    {
        "parkName": "Green River State Park",
        "county": "Emery",
        "size": "53 acres",
        "elevation": "4,050 ft",
        "yearEstablished": 1965,
        "yearlyVisitors": "56,828",
        "remarks": "Features a shady campground, nine-hole golf course, and float trip launching on the Green River.",
        "latitude": 38.9889,
        "longitude": 110.1523
    },
    {
        "parkName": "Gunlock State Park",
        "county": "Washington",
        "size": "549 acres",
        "elevation": "3,600 ft",
        "yearEstablished": 1970,
        "yearlyVisitors": "14,423",
        "remarks": "Adjoins a 266-acre  reservoir.",
        "latitude": 37.2544,
        "longitude": 113.7707
    },
    {
        "parkName": "Historic Union Pacific Rail Trail State Park",
        "county": "Summit",
        "size": "450 acres",
        "elevation": "6,900 ft",
        "yearEstablished": 1992,
        "yearlyVisitors": "No Data",
        "remarks": "Comprises a 28-mile  rail trail on a route used by the Union Pacific Railroad from 1880 to 1989.",
        "latitude": 40.80461452844637,
        "longitude": -111.43852011499564
    },
    {
        "parkName": "Huntington State Park",
        "county": "Emery",
        "size": "111 acres",
        "elevation": "5,840 ft",
        "yearEstablished": 1966,
        "yearlyVisitors": "30,708",
        "remarks": "Features a warm-water reservoir.",
        "latitude": 33.5146,
        "longitude": 79.0609
    },
    {
        "parkName": "Hyrum State Park",
        "county": "Cache",
        "size": "264 acres",
        "elevation": "4,700 ft",
        "yearEstablished": 1959,
        "yearlyVisitors": "75,073",
        "remarks": "Surrounds a 450-acre  reservoir.",
        "latitude": 41.6274,
        "longitude": 111.8666
    },
    {
        "parkName": "Jordan River Off-Highway Vehicle State Recreation Area",
        "county": "Salt Lake",
        "size": "350 acres",
        "elevation": "4,700 ft",
        "yearEstablished": 2002,
        "yearlyVisitors": "12,130",
        "remarks": "Offers four tracks for off highway vehicles along the Jordan River.",
        "latitude": 40.8260,
        "longitude": 111.9422
    },
    {
        "parkName": "Jordanelle State Park",
        "county": "Wasatch",
        "size": "",
        "elevation": "6,166 ft",
        "yearEstablished": 1995,
        "yearlyVisitors": "403,136",
        "remarks": "Comprises two recreation areas on Jordanelle Reservoir.",
        "latitude": 40.8260,
        "longitude": 111.9422
    },
    {
        "parkName": "Kodachrome Basin State Park",
        "county": "Kane",
        "size": "2,240 acres",
        "elevation": "5,800 ft",
        "yearEstablished": 1963,
        "yearlyVisitors": "107,850",
        "remarks": "Showcases 67 rock spires and other geologic wonders in a basin so photogenic it was named after Kodachrome film.",
        "latitude": 40.6200,
        "longitude": 111.4097
    },
    {
        "parkName": "Millsite State Park",
        "county": "Emery",
        "size": "638 acres",
        "elevation": "6,100 ft",
        "yearEstablished": 1971,
        "yearlyVisitors": "28,805",
        "remarks": "Features a reservoir and lands for off highway vehicles and mountain biking.",
        "latitude": 39.0920,
        "longitude": 111.1940
    },
    {
        "parkName": "Otter Creek State Park",
        "county": "Piute",
        "size": "80 acres",
        "elevation": "5,900 ft",
        "yearEstablished": 1964,
        "yearlyVisitors": "31,361",
        "remarks": "Features a 3,120-acre  reservoir, begun in 1897 as one of the earliest dam projects in Utah.",
        "latitude": 38.1664,
        "longitude": 112.0186
    },
    {
        "parkName": "Palisade State Park",
        "county": "Sanpete",
        "size": "64 acres",
        "elevation": "5,800 ft",
        "yearEstablished": 1962,
        "yearlyVisitors": "113,713",
        "remarks": "Features a reservoir and 18-hole golf course on the former site of a private resort founded in the 1860s.",
        "latitude": 39.2090,
        "longitude": 111.6667
    },
    {
        "parkName": "Piute State Park",
        "county": "Piute",
        "size": "40 acres",
        "elevation": "5,900 ft",
        "yearEstablished": 1963,
        "yearlyVisitors": "1,302",
        "remarks": "Protects a quiet fishing reservoir on the Sevier River.",
        "latitude": 38.3190,
        "longitude": 38.3190
    },
    {
        "parkName": "Quail Creek State Park",
        "county": "Washington",
        "size": "",
        "elevation": "3,300 ft",
        "yearEstablished": 1986,
        "yearlyVisitors": "83,017",
        "remarks": "Adjoins a 600-acre  reservoir surrounded by red rock desert.",
        "latitude": 37.1879,
        "longitude": 113.3941
    },
    {
        "parkName": "Red Fleet State Park",
        "county": "Uintah",
        "size": "1,963 acres",
        "elevation": "5,500 ft",
        "yearEstablished": 1988,
        "yearlyVisitors": "28,506",
        "remarks": "Features a 750-acre  reservoir and a fossil trackway of dinosaur footprints.",
        "latitude": 40.5802,
        "longitude": 109.4322
    },
    {
        "parkName": "Rockport State Park",
        "county": "Summit",
        "size": "550 acres",
        "elevation": "6,000 ft",
        "yearEstablished": 1966,
        "yearlyVisitors": "118,556",
        "remarks": "Features a 1,080-acre  reservoir.",
        "latitude": 48.4905,
        "longitude": 121.6179
    },
    {
        "parkName": "Sand Hollow State Park",
        "county": "Washington",
        "size": "20,611 acres",
        "elevation": "3,000 ft",
        "yearEstablished": 2003,
        "yearlyVisitors": "433,152",
        "remarks": "Features a 1,322-acre  reservoir and an extensive off highway vehicle recreation area.",
        "latitude": 37.1200,
        "longitude": 113.3820
    },
    {
        "parkName": "Scofield State Park",
        "county": "Carbon",
        "size": "",
        "elevation": "7,600 ft",
        "yearEstablished": 1965,
        "yearlyVisitors": "21,860",
        "remarks": "Features a 2,800-acre  reservoir.",
        "latitude": 39.7938,
        "longitude": 111.1309
    },
    {
        "parkName": "Snow Canyon State Park",
        "county": "Washington",
        "size": "7,400 acres",
        "elevation": "3,100 ft",
        "yearEstablished": 1962,
        "yearlyVisitors": "272,041",
        "remarks": "Showcases a canyon carved out of colorful Navajo sandstone and landforms created by the Santa Clara Volcano.",
        "latitude": 37.2178,
        "longitude": 113.6396
    },
    {
        "parkName": "Starvation State Park",
        "county": "Duchesne",
        "size": "3,500 acres",
        "elevation": "5,700 ft",
        "yearEstablished": 1972,
        "yearlyVisitors": "100,489",
        "remarks": "Features a 3,495-acre  reservoir where early settlers once struggled against starvation.",
        "latitude": 40.1868,
        "longitude": 110.4674
    },
    {
        "parkName": "Steinaker State Park",
        "county": "Uintah",
        "size": "2,283 acres",
        "elevation": "5,500 ft",
        "yearEstablished": 1964,
        "yearlyVisitors": "37,519",
        "remarks": "Features an 820-acre  reservoir.",
        "latitude": 40.5172,
        "longitude": 109.5386
    },
    {
        "parkName": "This Is the Place Heritage Park",
        "county": "Salt Lake",
        "size": "450 acres",
        "elevation": "4,921 ft",
        "yearEstablished": 1957,
        "yearlyVisitors": "No Data",
        "remarks": "Interprets Utah's settlement era with a living history village and This Is the Place Monument.",
        "latitude": 40.7526,
        "longitude": 111.8158
    },
    {
        "parkName": "Territorial Statehouse State Park Museum",
        "county": "Millard",
        "size": "3 acres",
        "elevation": "5,100 ft",
        "yearEstablished": 1957,
        "yearlyVisitors": "7,957",
        "remarks": "Interprets the capitol of Utah Territory, the state's oldest government building, constructed between 1852 and 1855.",
        "latitude": 38.9671,
        "longitude": 112.3254
    },
    {
        "parkName": "Utah Field House of Natural History State Park Museum",
        "county": "Uintah",
        "size": "2 acres",
        "elevation": "5,300 ft",
        "yearEstablished": 1959,
        "yearlyVisitors": "58,042",
        "remarks": "Houses a state-owned museum of natural history.",
        "latitude": 40.4553,
        "longitude": 109.5197
    },
    {
        "parkName": "Utah Lake State Park",
        "county": "Utah",
        "size": "308 acres",
        "elevation": "4,500 ft",
        "yearEstablished": 1970,
        "yearlyVisitors": "132,954",
        "remarks": "Adjoins Utah Lake, the state's largest body of fresh water.",
        "latitude": 40.2378,
        "longitude":111.7362
    },
    {
        "parkName": "Wasatch Mountain State Park",
        "county": "Wasatch",
        "size": "21,592 acres",
        "elevation": "5,900 ft",
        "yearEstablished": 1968,
        "yearlyVisitors": "336,230",
        "remarks": "Features extensive recreational developments, including facilities built for the 2002 Winter Olympics.",
        "latitude": 40.5331,
        "longitude":111.4901
    },
    {
        "parkName": "Willard Bay State Park",
        "county": "Box Elder",
        "size": "",
        "elevation": "4,200 ft",
        "yearEstablished": 1966,
        "yearlyVisitors": "297,837",
        "remarks": "Provides water recreation opportunities on a 9,900-acre  freshwater reservoir on the floodplain of the Great Salt Lake.",
        "latitude": 41.4208,
        "longitude":112.0582
    },
    {
        "parkName": "Yuba State Park",
        "county": "Juab and Sanpete",
        "size": "15,940 acres",
        "elevation": "5,100 ft",
        "yearEstablished": 1970,
        "yearlyVisitors": "105,819",
        "remarks": "Features a reservoir on the Sevier River.",
        "latitude": 39.3799,
        "longitude": 112.0256
    }
]